[
  {
    "name": "Cho thuê trang phục biểu diễn Nha Trang - Thu Hà",
    "category": "Furniture store",
    "rating": 1.4,
    "reviewCount": 14,
    "address": "Address: 521 Đ. 2/4, Bắc Nha Trang, Khánh Hòa 650000, Vietnam",
    "latitude": 12.273081,
    "longitude": 109.198318
  },
  {
    "name": "Tiệm Nhà Chang - Cho thuê đồ Nha Trang",
    "category": "Costume store",
    "rating": 4.8,
    "reviewCount": 48,
    "address": "Address: 593 Đ. 2/4, Bắc Nha Trang, Khánh Hòa 57000, Vietnam",
    "latitude": 12.2713857,
    "longitude": 109.1982372
  },
  {
    "name": "TRANG PHỤC BIỂU DIỄN CHÚC TĨNH",
    "category": "Tailor",
    "rating": 3,
    "reviewCount": 30,
    "address": "Address: 308/1 Đ. 2/4, Bắc Nha Trang, Khánh Hòa 650000, Vietnam",
    "latitude": 12.2843171,
    "longitude": 109.1917543
  },
  {
    "name": "Son Aura - Thuê Đồ Đi Tiệc - Váy Đầm Thiết Kế Nha Trang",
    "category": "Costume rental service",
    "rating": 5,
    "reviewCount": 50,
    "address": "Address: 20.05 Đường 8C, Khu đô thị Hà Quang 2, Nha Trang, Khánh Hòa 650000, Vietnam",
    "latitude": 12.2485447,
    "longitude": 109.1791891
  },
  {
    "name": "Cho thuê Xe Máy Nha Trang- Motorbike for Rent- 오토바이 대여- прокат мотоциклов- 摩托车租赁",
    "category": "Motorcycle rental agency",
    "rating": 5,
    "reviewCount": 50,
    "address": "Address: 64 Đường Mai Xuân Thưởng, Bắc Nha Trang, Khánh Hòa 650000, Vietnam",
    "latitude": 12.2837184,
    "longitude": 109.1958503
  }
]