[
  {
    "name": "DV Du Lịch Cho Thuê Xe Ô Tô Tự Lái",
    "category": "Car rental agency",
    "rating": 5,
    "reviewCount": 50,
    "address": "Address: 50 Đ. Số 20, Tân An, Cần Thơ, Vietnam",
    "latitude": 10.0387718,
    "longitude": 105.7552138
  },
  {
    "name": "Thảo Nhi Cho thuê ô tô điện tự lái",
    "category": "Car leasing service",
    "rating": 5,
    "reviewCount": 50,
    "address": "Address: 15 Đ. Nguyễn Hữu Cảnh, Thốt Nốt, Cần Thơ, Vietnam",
    "latitude": 10.2760122,
    "longitude": 105.5264648
  },
  {
    "name": "Ô tô tự lái Trần Trường Hưng Cần Thơ (Nhà xe Trường Hưng)",
    "category": "Car rental agency",
    "rating": 4.6,
    "reviewCount": 46,
    "address": "Address: P011 Lô A, KDC, Cái Răng, Cần Thơ 90000, Vietnam",
    "latitude": 9.9983594,
    "longitude": 105.77499
  },
  {
    "name": "Cho Thuê xe ô tô tự lái cần thơ",
    "category": "Car rental agency",
    "rating": 5,
    "reviewCount": 50,
    "address": "Address: 104 Đ. Nguyễn Đệ, Bình Thủy, Cần Thơ 900000, Vietnam",
    "latitude": 10.0486648,
    "longitude": 105.7631992
  },
  {
    "name": "CÔNG TY DU LỊCH TỐC HÀNH",
    "category": "Car rental agency",
    "rating": 4.5,
    "reviewCount": 45,
    "address": "Address: KV. Phú Mỹ, Cai Rang, Can Tho 70010, Vietnam",
    "latitude": 9.9976313,
    "longitude": 105.7617018
  }
]