[
  {
    "name": "Sửa Khóa Tại Nhà Đà Nẵng",
    "category": "Locksmith",
    "rating": 4.4,
    "reviewCount": 44,
    "address": "Address: 47 Lê Hữu Trác, An Hải, Đà Nẵng 550000, Vietnam",
    "latitude": 16.0580525,
    "longitude": 108.2385695
  },
  {
    "name": "Sửa Khóa Thuận Thành",
    "category": "Store",
    "rating": 4.7,
    "reviewCount": 47,
    "address": "Address: 150 Ông Ích Khiêm, Thanh Khê, Đà Nẵng 550000, Vietnam",
    "latitude": 16.0736359,
    "longitude": 108.2126696
  },
  {
    "name": "Sửa Khoá Đà Nẵng - Sửa Khoá Vĩnh Huy",
    "category": "Locksmith",
    "rating": 5,
    "reviewCount": 50,
    "address": "Address: 20 Phước Mỹ 2, An Hải, Đà Nẵng 550000, Vietnam",
    "latitude": 16.0660988,
    "longitude": 108.2423625
  },
  {
    "name": "Thợ Sửa Khóa Tam Kỳ",
    "category": "Emergency locksmith service",
    "rating": 4.9,
    "reviewCount": 49,
    "address": "Address: 180 Hùng Vương, Tam Kỳ, Đà Nẵng 560000, Vietnam",
    "latitude": 15.5630032,
    "longitude": 108.4827705
  },
  {
    "name": "Sửa khoá Anh Vũ - Thợ Sửa Khoá Nha Trang",
    "category": "Locksmith",
    "rating": 4.9,
    "reviewCount": 49,
    "address": "Address: 492 Đ. 2/4, Bắc Nha Trang, Khánh Hòa 650000, Vietnam",
    "latitude": 12.2785212,
    "longitude": 109.1957123
  }
]